[
  {
    "city": "Bandar Seri Begawan", 
    "lat": "4.9167", 
    "lng": "114.9167", 
    "country": "Brunei", 
    "iso2": "BN", 
    "admin_name": "Brunei and Muara", 
    "capital": "primary", 
    "population": "50000", 
    "population_proper": "50000"
  }, 
  {
    "city": "Seria", 
    "lat": "4.6142", 
    "lng": "114.3303", 
    "country": "Brunei", 
    "iso2": "BN", 
    "admin_name": "Belait", 
    "capital": "", 
    "population": "21082", 
    "population_proper": "21082"
  }, 
  {
    "city": "Kampong Tunah Jambu", 
    "lat": "4.9957", 
    "lng": "115.0019", 
    "country": "Brunei", 
    "iso2": "BN", 
    "admin_name": "Brunei and Muara", 
    "capital": "", 
    "population": "8809", 
    "population_proper": "8809"
  }, 
  {
    "city": "Kampong Mata Mata", 
    "lat": "4.9017", 
    "lng": "114.8958", 
    "country": "Brunei", 
    "iso2": "BN", 
    "admin_name": "Brunei and Muara", 
    "capital": "", 
    "population": "6126", 
    "population_proper": "6126"
  }, 
  {
    "city": "Kampong Mulaut", 
    "lat": "4.8693", 
    "lng": "114.8466", 
    "country": "Brunei", 
    "iso2": "BN", 
    "admin_name": "Brunei and Muara", 
    "capital": "", 
    "population": "5846", 
    "population_proper": "5846"
  }, 
  {
    "city": "Kampong Beribi", 
    "lat": "4.8841", 
    "lng": "114.8960", 
    "country": "Brunei", 
    "iso2": "BN", 
    "admin_name": "Brunei and Muara", 
    "capital": "", 
    "population": "5679", 
    "population_proper": "5679"
  }, 
  {
    "city": "Kampong Rimba", 
    "lat": "4.9271", 
    "lng": "114.9059", 
    "country": "Brunei", 
    "iso2": "BN", 
    "admin_name": "Brunei and Muara", 
    "capital": "", 
    "population": "5013", 
    "population_proper": "5013"
  }, 
  {
    "city": "Kampong Kiarong", 
    "lat": "4.8963", 
    "lng": "114.9163", 
    "country": "Brunei", 
    "iso2": "BN", 
    "admin_name": "Brunei and Muara", 
    "capital": "", 
    "population": "4530", 
    "population_proper": "4530"
  }, 
  {
    "city": "Kuala Belait", 
    "lat": "4.5828", 
    "lng": "114.1918", 
    "country": "Brunei", 
    "iso2": "BN", 
    "admin_name": "Belait", 
    "capital": "admin", 
    "population": "4259", 
    "population_proper": "4259"
  }, 
  {
    "city": "Kampong Ranggu", 
    "lat": "4.9544", 
    "lng": "114.9626", 
    "country": "Brunei", 
    "iso2": "BN", 
    "admin_name": "Brunei and Muara", 
    "capital": "", 
    "population": "4229", 
    "population_proper": "4229"
  }, 
  {
    "city": "Kampong Sungai Bubus", 
    "lat": "4.9899", 
    "lng": "115.0230", 
    "country": "Brunei", 
    "iso2": "BN", 
    "admin_name": "Brunei and Muara", 
    "capital": "", 
    "population": "3857", 
    "population_proper": "3857"
  }, 
  {
    "city": "Kampong Jerudong", 
    "lat": "4.9373", 
    "lng": "114.8419", 
    "country": "Brunei", 
    "iso2": "BN", 
    "admin_name": "Brunei and Muara", 
    "capital": "", 
    "population": "3856", 
    "population_proper": "3856"
  }, 
  {
    "city": "Kampong Peninjau", 
    "lat": "4.9256", 
    "lng": "114.8438", 
    "country": "Brunei", 
    "iso2": "BN", 
    "admin_name": "Brunei and Muara", 
    "capital": "", 
    "population": "3418", 
    "population_proper": "3418"
  }, 
  {
    "city": "Kampong Kiulap", 
    "lat": "4.8966", 
    "lng": "114.9281", 
    "country": "Brunei", 
    "iso2": "BN", 
    "admin_name": "Brunei and Muara", 
    "capital": "", 
    "population": "3400", 
    "population_proper": "3400"
  }, 
  {
    "city": "Kampong Serasa", 
    "lat": "5.0143", 
    "lng": "115.0582", 
    "country": "Brunei", 
    "iso2": "BN", 
    "admin_name": "Brunei and Muara", 
    "capital": "", 
    "population": "3200", 
    "population_proper": "3200"
  }, 
  {
    "city": "Kampong Tanjong Nangka", 
    "lat": "4.8764", 
    "lng": "114.8289", 
    "country": "Brunei", 
    "iso2": "BN", 
    "admin_name": "Brunei and Muara", 
    "capital": "", 
    "population": "3118", 
    "population_proper": "3118"
  }, 
  {
    "city": "Kampong Sungai Hanching", 
    "lat": "4.9681", 
    "lng": "114.9777", 
    "country": "Brunei", 
    "iso2": "BN", 
    "admin_name": "Brunei and Muara", 
    "capital": "", 
    "population": "2987", 
    "population_proper": "2987"
  }, 
  {
    "city": "Kampong Jangsak", 
    "lat": "4.8810", 
    "lng": "114.8708", 
    "country": "Brunei", 
    "iso2": "BN", 
    "admin_name": "Brunei and Muara", 
    "capital": "", 
    "population": "2968", 
    "population_proper": "2968"
  }, 
  {
    "city": "Kampong Tanjong", 
    "lat": "4.8923", 
    "lng": "114.8570", 
    "country": "Brunei", 
    "iso2": "BN", 
    "admin_name": "Brunei and Muara", 
    "capital": "", 
    "population": "2875", 
    "population_proper": "2875"
  }, 
  {
    "city": "Kampong Kapok", 
    "lat": "5.0227", 
    "lng": "115.0454", 
    "country": "Brunei", 
    "iso2": "BN", 
    "admin_name": "Brunei and Muara", 
    "capital": "", 
    "population": "2791", 
    "population_proper": "2791"
  }, 
  {
    "city": "Kampong Delima", 
    "lat": "4.9129", 
    "lng": "114.9833", 
    "country": "Brunei", 
    "iso2": "BN", 
    "admin_name": "Brunei and Muara", 
    "capital": "", 
    "population": "2721", 
    "population_proper": "2721"
  }, 
  {
    "city": "Kampong Lumapas", 
    "lat": "4.8228", 
    "lng": "114.9099", 
    "country": "Brunei", 
    "iso2": "BN", 
    "admin_name": "Brunei and Muara", 
    "capital": "", 
    "population": "2709", 
    "population_proper": "2709"
  }, 
  {
    "city": "Kampong Subok", 
    "lat": "4.8936", 
    "lng": "114.9656", 
    "country": "Brunei", 
    "iso2": "BN", 
    "admin_name": "Brunei and Muara", 
    "capital": "", 
    "population": "2681", 
    "population_proper": "2681"
  }, 
  {
    "city": "Kampong Sinarubai", 
    "lat": "4.8382", 
    "lng": "114.8735", 
    "country": "Brunei", 
    "iso2": "BN", 
    "admin_name": "Brunei and Muara", 
    "capital": "", 
    "population": "2319", 
    "population_proper": "2319"
  }, 
  {
    "city": "Kampong Telisai", 
    "lat": "4.7325", 
    "lng": "114.5578", 
    "country": "Brunei", 
    "iso2": "BN", 
    "admin_name": "Tutong", 
    "capital": "", 
    "population": "2293", 
    "population_proper": "2293"
  }, 
  {
    "city": "Kampong Pasang", 
    "lat": "4.8842", 
    "lng": "114.8450", 
    "country": "Brunei", 
    "iso2": "BN", 
    "admin_name": "Brunei and Muara", 
    "capital": "", 
    "population": "2204", 
    "population_proper": "2204"
  }, 
  {
    "city": "Kampong Keriam", 
    "lat": "4.8164", 
    "lng": "114.6931", 
    "country": "Brunei", 
    "iso2": "BN", 
    "admin_name": "Tutong", 
    "capital": "", 
    "population": "2195", 
    "population_proper": "2195"
  }, 
  {
    "city": "Kampong Lugu", 
    "lat": "4.8758", 
    "lng": "114.8032", 
    "country": "Brunei", 
    "iso2": "BN", 
    "admin_name": "Brunei and Muara", 
    "capital": "", 
    "population": "2082", 
    "population_proper": "2082"
  }, 
  {
    "city": "Kampong Katok", 
    "lat": "4.9150", 
    "lng": "114.8927", 
    "country": "Brunei", 
    "iso2": "BN", 
    "admin_name": "Brunei and Muara", 
    "capital": "", 
    "population": "2079", 
    "population_proper": "2079"
  }, 
  {
    "city": "Kampong Penanjong", 
    "lat": "4.8408", 
    "lng": "114.6816", 
    "country": "Brunei", 
    "iso2": "BN", 
    "admin_name": "Tutong", 
    "capital": "", 
    "population": "2065", 
    "population_proper": "2065"
  }, 
  {
    "city": "Kampong Sungai Besar", 
    "lat": "4.9416", 
    "lng": "115.0188", 
    "country": "Brunei", 
    "iso2": "BN", 
    "admin_name": "Brunei and Muara", 
    "capital": "", 
    "population": "2039", 
    "population_proper": "2039"
  }, 
  {
    "city": "Kampong Junjongan", 
    "lat": "4.8104", 
    "lng": "114.8538", 
    "country": "Brunei", 
    "iso2": "BN", 
    "admin_name": "Brunei and Muara", 
    "capital": "", 
    "population": "2006", 
    "population_proper": "2006"
  }, 
  {
    "city": "Kampong Sangkarai", 
    "lat": "4.8049", 
    "lng": "114.6462", 
    "country": "Brunei", 
    "iso2": "BN", 
    "admin_name": "Tutong", 
    "capital": "", 
    "population": "1989", 
    "population_proper": "1989"
  }, 
  {
    "city": "Kampong Salam Bigar", 
    "lat": "4.9818", 
    "lng": "114.9898", 
    "country": "Brunei", 
    "iso2": "BN", 
    "admin_name": "Brunei and Muara", 
    "capital": "", 
    "population": "1884", 
    "population_proper": "1884"
  }, 
  {
    "city": "Kampong Selayun", 
    "lat": "4.9056", 
    "lng": "114.8505", 
    "country": "Brunei", 
    "iso2": "BN", 
    "admin_name": "Brunei and Muara", 
    "capital": "", 
    "population": "1875", 
    "population_proper": "1875"
  }, 
  {
    "city": "Kampong Salapit", 
    "lat": "4.8541", 
    "lng": "114.8214", 
    "country": "Brunei", 
    "iso2": "BN", 
    "admin_name": "Brunei and Muara", 
    "capital": "", 
    "population": "1766", 
    "population_proper": "1766"
  }, 
  {
    "city": "Kampong Tulang", 
    "lat": "4.9306", 
    "lng": "114.8840", 
    "country": "Brunei", 
    "iso2": "BN", 
    "admin_name": "Brunei and Muara", 
    "capital": "", 
    "population": "1689", 
    "population_proper": "1689"
  }, 
  {
    "city": "Kampong Bunot", 
    "lat": "4.8523", 
    "lng": "114.8811", 
    "country": "Brunei", 
    "iso2": "BN", 
    "admin_name": "Brunei and Muara", 
    "capital": "", 
    "population": "1563", 
    "population_proper": "1563"
  }, 
  {
    "city": "Kampong Parit", 
    "lat": "4.8863", 
    "lng": "114.9285", 
    "country": "Brunei", 
    "iso2": "BN", 
    "admin_name": "Brunei and Muara", 
    "capital": "", 
    "population": "1509", 
    "population_proper": "1509"
  }, 
  {
    "city": "Kampong Serusup", 
    "lat": "4.9468", 
    "lng": "114.9440", 
    "country": "Brunei", 
    "iso2": "BN", 
    "admin_name": "Brunei and Muara", 
    "capital": "", 
    "population": "1474", 
    "population_proper": "1474"
  }, 
  {
    "city": "Kampong Nangka", 
    "lat": "4.9102", 
    "lng": "114.8440", 
    "country": "Brunei", 
    "iso2": "BN", 
    "admin_name": "Brunei and Muara", 
    "capital": "", 
    "population": "1452", 
    "population_proper": "1452"
  }, 
  {
    "city": "Kampong Bebatek", 
    "lat": "4.8519", 
    "lng": "114.8404", 
    "country": "Brunei", 
    "iso2": "BN", 
    "admin_name": "Brunei and Muara", 
    "capital": "", 
    "population": "1409", 
    "population_proper": "1409"
  }, 
  {
    "city": "Kampong Pugat", 
    "lat": "4.8131", 
    "lng": "114.8365", 
    "country": "Brunei", 
    "iso2": "BN", 
    "admin_name": "Brunei and Muara", 
    "capital": "", 
    "population": "1299", 
    "population_proper": "1299"
  }, 
  {
    "city": "Kampong Gadong", 
    "lat": "4.9548", 
    "lng": "114.9521", 
    "country": "Brunei", 
    "iso2": "BN", 
    "admin_name": "Brunei and Muara", 
    "capital": "", 
    "population": "1231", 
    "population_proper": "1231"
  }, 
  {
    "city": "Kampong Batong", 
    "lat": "4.8251", 
    "lng": "114.8182", 
    "country": "Brunei", 
    "iso2": "BN", 
    "admin_name": "Brunei and Muara", 
    "capital": "", 
    "population": "1225", 
    "population_proper": "1225"
  }, 
  {
    "city": "Kampong Mentiri", 
    "lat": "4.9704", 
    "lng": "115.0209", 
    "country": "Brunei", 
    "iso2": "BN", 
    "admin_name": "Brunei and Muara", 
    "capital": "", 
    "population": "1215", 
    "population_proper": "1215"
  }, 
  {
    "city": "Kampong Kasat", 
    "lat": "4.8233", 
    "lng": "114.9472", 
    "country": "Brunei", 
    "iso2": "BN", 
    "admin_name": "Brunei and Muara", 
    "capital": "", 
    "population": "1029", 
    "population_proper": "1029"
  }, 
  {
    "city": "Kampong Pegalayan", 
    "lat": "4.7981", 
    "lng": "114.8279", 
    "country": "Brunei", 
    "iso2": "BN", 
    "admin_name": "Brunei and Muara", 
    "capital": "", 
    "population": "1007", 
    "population_proper": "1007"
  }, 
  {
    "city": "Kampong Penabai", 
    "lat": "4.7959", 
    "lng": "114.6258", 
    "country": "Brunei", 
    "iso2": "BN", 
    "admin_name": "Tutong", 
    "capital": "", 
    "population": "888", 
    "population_proper": "888"
  }, 
  {
    "city": "Kampong Katimahar", 
    "lat": "4.8686", 
    "lng": "114.8133", 
    "country": "Brunei", 
    "iso2": "BN", 
    "admin_name": "Brunei and Muara", 
    "capital": "", 
    "population": "873", 
    "population_proper": "873"
  }, 
  {
    "city": "Kampong Batu Marang", 
    "lat": "4.9819", 
    "lng": "115.0335", 
    "country": "Brunei", 
    "iso2": "BN", 
    "admin_name": "Brunei and Muara", 
    "capital": "", 
    "population": "870", 
    "population_proper": "870"
  }, 
  {
    "city": "Kampong Madewa", 
    "lat": "4.8558", 
    "lng": "114.8954", 
    "country": "Brunei", 
    "iso2": "BN", 
    "admin_name": "Brunei and Muara", 
    "capital": "", 
    "population": "865", 
    "population_proper": "865"
  }, 
  {
    "city": "Kampong Pelambayan", 
    "lat": "4.8883", 
    "lng": "114.9738", 
    "country": "Brunei", 
    "iso2": "BN", 
    "admin_name": "Brunei and Muara", 
    "capital": "", 
    "population": "714", 
    "population_proper": "714"
  }, 
  {
    "city": "Kampong Batu Empat", 
    "lat": "4.7823", 
    "lng": "114.8216", 
    "country": "Brunei", 
    "iso2": "BN", 
    "admin_name": "Brunei and Muara", 
    "capital": "", 
    "population": "629", 
    "population_proper": "629"
  }, 
  {
    "city": "Bangar", 
    "lat": "4.7086", 
    "lng": "115.0739", 
    "country": "Brunei", 
    "iso2": "BN", 
    "admin_name": "Temburong", 
    "capital": "admin", 
    "population": "626", 
    "population_proper": "626"
  }, 
  {
    "city": "Kampong Serdang", 
    "lat": "4.9035", 
    "lng": "114.9920", 
    "country": "Brunei", 
    "iso2": "BN", 
    "admin_name": "Brunei and Muara", 
    "capital": "", 
    "population": "609", 
    "population_proper": "609"
  }, 
  {
    "city": "Kampong Kota Batu", 
    "lat": "4.8782", 
    "lng": "114.9612", 
    "country": "Brunei", 
    "iso2": "BN", 
    "admin_name": "Brunei and Muara", 
    "capital": "", 
    "population": "588", 
    "population_proper": "588"
  }, 
  {
    "city": "Kampong Sungai Kelugus", 
    "lat": "4.8797", 
    "lng": "114.9432", 
    "country": "Brunei", 
    "iso2": "BN", 
    "admin_name": "Brunei and Muara", 
    "capital": "", 
    "population": "578", 
    "population_proper": "578"
  }, 
  {
    "city": "Kampong Burong Pingai Berakas", 
    "lat": "4.9296", 
    "lng": "114.9280", 
    "country": "Brunei", 
    "iso2": "BN", 
    "admin_name": "Brunei and Muara", 
    "capital": "", 
    "population": "564", 
    "population_proper": "564"
  }, 
  {
    "city": "Kampong Menunggol", 
    "lat": "4.8636", 
    "lng": "114.9775", 
    "country": "Brunei", 
    "iso2": "BN", 
    "admin_name": "Brunei and Muara", 
    "capital": "", 
    "population": "541", 
    "population_proper": "541"
  }, 
  {
    "city": "Kampong Panchor Dulit", 
    "lat": "4.8053", 
    "lng": "114.6647", 
    "country": "Brunei", 
    "iso2": "BN", 
    "admin_name": "Tutong", 
    "capital": "", 
    "population": "541", 
    "population_proper": "541"
  }, 
  {
    "city": "Kampong Pantau Marai", 
    "lat": "4.8045", 
    "lng": "114.8110", 
    "country": "Brunei", 
    "iso2": "BN", 
    "admin_name": "Brunei and Muara", 
    "capital": "", 
    "population": "523", 
    "population_proper": "523"
  }, 
  {
    "city": "Kampong Panchor Papan", 
    "lat": "4.8092", 
    "lng": "114.6730", 
    "country": "Brunei", 
    "iso2": "BN", 
    "admin_name": "Tutong", 
    "capital": "", 
    "population": "483", 
    "population_proper": "483"
  }, 
  {
    "city": "Kampong Lupak Luas", 
    "lat": "4.8696", 
    "lng": "114.9403", 
    "country": "Brunei", 
    "iso2": "BN", 
    "admin_name": "Brunei and Muara", 
    "capital": "", 
    "population": "472", 
    "population_proper": "472"
  }, 
  {
    "city": "Kampong Pulaie", 
    "lat": "4.9325", 
    "lng": "114.9538", 
    "country": "Brunei", 
    "iso2": "BN", 
    "admin_name": "Brunei and Muara", 
    "capital": "", 
    "population": "412", 
    "population_proper": "412"
  }, 
  {
    "city": "Kampong Sabun", 
    "lat": "5.0303", 
    "lng": "115.0595", 
    "country": "Brunei", 
    "iso2": "BN", 
    "admin_name": "Brunei and Muara", 
    "capital": "", 
    "population": "412", 
    "population_proper": "412"
  }, 
  {
    "city": "Kampong Batu Lapan", 
    "lat": "4.8281", 
    "lng": "114.8644", 
    "country": "Brunei", 
    "iso2": "BN", 
    "admin_name": "Brunei and Muara", 
    "capital": "", 
    "population": "395", 
    "population_proper": "395"
  }, 
  {
    "city": "Kampong Berangan", 
    "lat": "4.8950", 
    "lng": "114.9458", 
    "country": "Brunei", 
    "iso2": "BN", 
    "admin_name": "Brunei and Muara", 
    "capital": "", 
    "population": "379", 
    "population_proper": "379"
  }, 
  {
    "city": "Kampong Sungai Lampai", 
    "lat": "4.8747", 
    "lng": "114.9537", 
    "country": "Brunei", 
    "iso2": "BN", 
    "admin_name": "Brunei and Muara", 
    "capital": "", 
    "population": "314", 
    "population_proper": "314"
  }, 
  {
    "city": "Kampong Kandang", 
    "lat": "4.7951", 
    "lng": "114.6417", 
    "country": "Brunei", 
    "iso2": "BN", 
    "admin_name": "Tutong", 
    "capital": "", 
    "population": "305", 
    "population_proper": "305"
  }, 
  {
    "city": "Kampong Kuala Tutong", 
    "lat": "4.7808", 
    "lng": "114.6077", 
    "country": "Brunei", 
    "iso2": "BN", 
    "admin_name": "Tutong", 
    "capital": "", 
    "population": "295", 
    "population_proper": "295"
  }, 
  {
    "city": "Kampong Medaras", 
    "lat": "4.9136", 
    "lng": "114.9343", 
    "country": "Brunei", 
    "iso2": "BN", 
    "admin_name": "Brunei and Muara", 
    "capital": "", 
    "population": "288", 
    "population_proper": "288"
  }, 
  {
    "city": "Kampong Terap Bau", 
    "lat": "4.8701", 
    "lng": "114.9452", 
    "country": "Brunei", 
    "iso2": "BN", 
    "admin_name": "Brunei and Muara", 
    "capital": "", 
    "population": "258", 
    "population_proper": "258"
  }, 
  {
    "city": "Kampong Telamba", 
    "lat": "4.7299", 
    "lng": "114.5671", 
    "country": "Brunei", 
    "iso2": "BN", 
    "admin_name": "Tutong", 
    "capital": "", 
    "population": "256", 
    "population_proper": "256"
  }, 
  {
    "city": "Kampong Sungai Asam", 
    "lat": "4.8733", 
    "lng": "114.9357", 
    "country": "Brunei", 
    "iso2": "BN", 
    "admin_name": "Brunei and Muara", 
    "capital": "", 
    "population": "179", 
    "population_proper": "179"
  }, 
  {
    "city": "Kampong Pudak", 
    "lat": "4.8974", 
    "lng": "115.0011", 
    "country": "Brunei", 
    "iso2": "BN", 
    "admin_name": "Brunei and Muara", 
    "capital": "", 
    "population": "151", 
    "population_proper": "151"
  }, 
  {
    "city": "Kampong Ikas", 
    "lat": "4.8668", 
    "lng": "114.7924", 
    "country": "Brunei", 
    "iso2": "BN", 
    "admin_name": "Brunei and Muara", 
    "capital": "", 
    "population": "68", 
    "population_proper": "68"
  }, 
  {
    "city": "Kampong Batu Empat", 
    "lat": "4.8839", 
    "lng": "114.9426", 
    "country": "Brunei", 
    "iso2": "BN", 
    "admin_name": "Brunei and Muara", 
    "capital": "", 
    "population": "54", 
    "population_proper": "54"
  }, 
  {
    "city": "Kampong Buangsakar", 
    "lat": "4.8592", 
    "lng": "114.9494", 
    "country": "Brunei", 
    "iso2": "BN", 
    "admin_name": "Brunei and Muara", 
    "capital": "", 
    "population": "46", 
    "population_proper": "46"
  }, 
  {
    "city": "Kampong Riong", 
    "lat": "4.8519", 
    "lng": "114.9816", 
    "country": "Brunei", 
    "iso2": "BN", 
    "admin_name": "Brunei and Muara", 
    "capital": "", 
    "population": "41", 
    "population_proper": "41"
  }, 
  {
    "city": "Kampong Timbunan", 
    "lat": "4.8880", 
    "lng": "114.9358", 
    "country": "Brunei", 
    "iso2": "BN", 
    "admin_name": "Brunei and Muara", 
    "capital": "", 
    "population": "31", 
    "population_proper": "31"
  }, 
  {
    "city": "Kampong Imang", 
    "lat": "4.7911", 
    "lng": "114.8009", 
    "country": "Brunei", 
    "iso2": "BN", 
    "admin_name": "Brunei and Muara", 
    "capital": "", 
    "population": "16", 
    "population_proper": "16"
  }, 
  {
    "city": "Kampong Buang Tawar", 
    "lat": "4.8766", 
    "lng": "114.9776", 
    "country": "Brunei", 
    "iso2": "BN", 
    "admin_name": "Brunei and Muara", 
    "capital": "", 
    "population": "10", 
    "population_proper": "10"
  }, 
  {
    "city": "Tutong", 
    "lat": "4.8067", 
    "lng": "114.6592", 
    "country": "Brunei", 
    "iso2": "BN", 
    "admin_name": "Tutong", 
    "capital": "admin", 
    "population": "", 
    "population_proper": ""
  }, 
  {
    "city": "Kampong Bibit", 
    "lat": "4.8833", 
    "lng": "114.9000", 
    "country": "Brunei", 
    "iso2": "BN", 
    "admin_name": "Brunei and Muara", 
    "capital": "", 
    "population": "", 
    "population_proper": ""
  }, 
  {
    "city": "Kampong Empat Setengah", 
    "lat": "4.9500", 
    "lng": "114.9500", 
    "country": "Brunei", 
    "iso2": "BN", 
    "admin_name": "Brunei and Muara", 
    "capital": "", 
    "population": "", 
    "population_proper": ""
  }, 
  {
    "city": "Kampong Bantun", 
    "lat": "4.8833", 
    "lng": "114.8667", 
    "country": "Brunei", 
    "iso2": "BN", 
    "admin_name": "Brunei and Muara", 
    "capital": "", 
    "population": "", 
    "population_proper": ""
  }, 
  {
    "city": "Kampong Panjang", 
    "lat": "4.9500", 
    "lng": "114.9000", 
    "country": "Brunei", 
    "iso2": "BN", 
    "admin_name": "Brunei and Muara", 
    "capital": "", 
    "population": "", 
    "population_proper": ""
  }, 
  {
    "city": "Kampong Berakas", 
    "lat": "4.9333", 
    "lng": "114.9500", 
    "country": "Brunei", 
    "iso2": "BN", 
    "admin_name": "Brunei and Muara", 
    "capital": "", 
    "population": "", 
    "population_proper": ""
  }, 
  {
    "city": "Kampong Pulau Muda", 
    "lat": "4.9333", 
    "lng": "114.9167", 
    "country": "Brunei", 
    "iso2": "BN", 
    "admin_name": "Brunei and Muara", 
    "capital": "", 
    "population": "", 
    "population_proper": ""
  }, 
  {
    "city": "Kampong Lambak", 
    "lat": "4.9686", 
    "lng": "114.9461", 
    "country": "Brunei", 
    "iso2": "BN", 
    "admin_name": "Brunei and Muara", 
    "capital": "", 
    "population": "", 
    "population_proper": ""
  }, 
  {
    "city": "Tangki Ayer", 
    "lat": "4.9167", 
    "lng": "114.9333", 
    "country": "Brunei", 
    "iso2": "BN", 
    "admin_name": "Brunei and Muara", 
    "capital": "", 
    "population": "", 
    "population_proper": ""
  }, 
  {
    "city": "Istana Darul Hana", 
    "lat": "4.8833", 
    "lng": "114.9167", 
    "country": "Brunei", 
    "iso2": "BN", 
    "admin_name": "Brunei and Muara", 
    "capital": "", 
    "population": "", 
    "population_proper": ""
  }, 
  {
    "city": "Rasau", 
    "lat": "4.5500", 
    "lng": "114.2167", 
    "country": "Brunei", 
    "iso2": "BN", 
    "admin_name": "Belait", 
    "capital": "", 
    "population": "", 
    "population_proper": ""
  }, 
  {
    "city": "Kampong Selangan", 
    "lat": "4.9167", 
    "lng": "114.8333", 
    "country": "Brunei", 
    "iso2": "BN", 
    "admin_name": "Brunei and Muara", 
    "capital": "", 
    "population": "", 
    "population_proper": ""
  }, 
  {
    "city": "Kampong Sengkurong", 
    "lat": "4.8878", 
    "lng": "114.8417", 
    "country": "Brunei", 
    "iso2": "BN", 
    "admin_name": "Brunei and Muara", 
    "capital": "", 
    "population": "", 
    "population_proper": ""
  }, 
  {
    "city": "Kampong Menunggol", 
    "lat": "4.9333", 
    "lng": "114.8333", 
    "country": "Brunei", 
    "iso2": "BN", 
    "admin_name": "Brunei and Muara", 
    "capital": "", 
    "population": "", 
    "population_proper": ""
  }, 
  {
    "city": "Kampong Timahu", 
    "lat": "4.8667", 
    "lng": "114.8167", 
    "country": "Brunei", 
    "iso2": "BN", 
    "admin_name": "Brunei and Muara", 
    "capital": "", 
    "population": "", 
    "population_proper": ""
  }, 
  {
    "city": "Kampong Mengawang", 
    "lat": "4.8833", 
    "lng": "114.8500", 
    "country": "Brunei", 
    "iso2": "BN", 
    "admin_name": "Brunei and Muara", 
    "capital": "", 
    "population": "", 
    "population_proper": ""
  }, 
  {
    "city": "Muara", 
    "lat": "5.0333", 
    "lng": "115.0667", 
    "country": "Brunei", 
    "iso2": "BN", 
    "admin_name": "Brunei and Muara", 
    "capital": "", 
    "population": "", 
    "population_proper": ""
  }, 
  {
    "city": "Kampong Panchuran", 
    "lat": "4.9627", 
    "lng": "115.0108", 
    "country": "Brunei", 
    "iso2": "BN", 
    "admin_name": "Brunei and Muara", 
    "capital": "", 
    "population": "", 
    "population_proper": ""
  }, 
  {
    "city": "Kampong Paring", 
    "lat": "4.9500", 
    "lng": "115.0167", 
    "country": "Brunei", 
    "iso2": "BN", 
    "admin_name": "Brunei and Muara", 
    "capital": "", 
    "population": "", 
    "population_proper": ""
  }, 
  {
    "city": "Kampong Limpas", 
    "lat": "4.8333", 
    "lng": "114.9167", 
    "country": "Brunei", 
    "iso2": "BN", 
    "admin_name": "Brunei and Muara", 
    "capital": "", 
    "population": "", 
    "population_proper": ""
  }
]